[{"name": "Berlin", "country_name": "Germany", "lat": 52.52437, "lon": 13.41053, "country_code": "DE", "population": 3426354, "elevation": 74, "idx": 0}, {"name": "Madrid", "country_name": "Spain", "lat": 40.4165, "lon": -3.70256, "country_code": "ES", "population": 3255944, "elevation": 0, "idx": 1}, {"name": "Rome", "country_name": "Italy", "lat": 41.89193, "lon": 12.51133, "country_code": "IT", "population": 2318895, "elevation": 20, "idx": 2}, {"name": "Paris", "country_name": "France", "lat": 48.85341, "lon": 2.3488, "country_code": "FR", "population": 2138551, "elevation": 0, "idx": 3}, {"name": "Hamburg", "country_name": "Germany", "lat": 53.55073, "lon": 9.99302, "country_code": "DE", "population": 1739117, "elevation": 0, "idx": 4}, {"name": "Barcelona", "country_name": "Spain", "lat": 41.38879, "lon": 2.15899, "country_code": "ES", "population": 1621537, "elevation": 15, "idx": 5}, {"name": "Munich", "country_name": "Germany", "lat": 48.13743, "lon": 11.57549, "country_code": "DE", "population": 1260391, "elevation": 0, "idx": 6}, {"name": "Milan", "country_name": "Italy", "lat": 45.46427, "lon": 9.18951, "country_code": "IT", "population": 1236837, "elevation": 122, "idx": 7}, {"name": "Brussels", "country_name": "Belgium", "lat": 50.85045, "lon": 4.34878, "country_code": "BE", "population": 1019022, "elevation": 0, "idx": 8}, {"name": "K\u00f6ln", "country_name": "Germany", "lat": 50.93333, "lon": 6.95, "country_code": "DE", "population": 963395, "elevation": 0, "idx": 9}]